[
  {
    "svg": { "svg_id": "2", "width": 10, "height": 10 },
    "id": 21557374,
    "name": "Donetsk airport",
    "lat": "48.07326",
    "lng": "37.72379",
    "strokecolor": "#FF0000",
    "fillcolor": "#FF0000",
    "picw": 39,
    "pich": 39,
    "picwo": 49,
    "picho": 49,
    "picx": 0,
    "picy": 0,
    "picxo": 0,
    "picyo": 0
  },
  {
    "svg": { "svg_id": "6", "width": 16, "height": 16 },
    "id": 21578558,
    "name": "Donetsk Water Treatment plant",
    "lat": "48.13191",
    "lng": "37.80775",
    "strokecolor": "#0000FF",
    "fillcolor": "#0000FF",
    "picw": 39,
    "pich": 39,
    "picwo": 49,
    "picho": 49,
    "picx": 0,
    "picy": 0,
    "picxo": 0,
    "picyo": 0
  },
  {
    "svg": { "svg_id": "12", "width": 10, "height": 10 },
    "id": 21761831,
    "name": "S-400 at Fiolent",
    "lat": "44.53864",
    "lng": "33.44101",
    "strokecolor": "#FF0000",
    "fillcolor": "#FF0000",
    "picw": 39,
    "pich": 39,
    "picwo": 49,
    "picho": 49,
    "picx": 0,
    "picy": 0,
    "picxo": 0,
    "picyo": 0
  },
  {
    "svg": { "svg_id": "12", "width": 10, "height": 10 },
    "id": 21761833,
    "name": "KRUG CDAA",
    "lat": "44.528",
    "lng": "33.47659",
    "strokecolor": "#FF0000",
    "fillcolor": "#FF0000",
    "picw": 39,
    "pich": 39,
    "picwo": 49,
    "picho": 49,
    "picx": 0,
    "picy": 0,
    "picxo": 0,
    "picyo": 0
  },
  {
    "svg": { "svg_id": "12", "width": 10, "height": 10 },
    "id": 22364091,
    "name": "Valuyki military deployment area",
    "lat": "50.2249",
    "lng": "38.1114",
    "strokecolor": "#FF0000",
    "fillcolor": "#FF0000",
    "picw": 39,
    "pich": 39,
    "picwo": 49,
    "picho": 49,
    "picx": 0,
    "picy": 0,
    "picxo": 0,
    "picyo": 0
  },
  {
    "svg": { "svg_id": "12", "width": 10, "height": 10 },
    "id": 22364092,
    "name": "Soloti military deployment area",
    "lat": "50.27347",
    "lng": "38.01716",
    "strokecolor": "#FF0000",
    "fillcolor": "#FF0000",
    "picw": 39,
    "pich": 39,
    "picwo": 49,
    "picho": 49,
    "picx": 0,
    "picy": 0,
    "picxo": 0,
    "picyo": 0
  },
  {
    "svg": { "svg_id": "12", "width": 10, "height": 10 },
    "id": 22364093,
    "name": "Pogonovo military deployment area",
    "lat": "51.49398",
    "lng": "39.1745",
    "strokecolor": "#FF0000",
    "fillcolor": "#FF0000",
    "picw": 39,
    "pich": 39,
    "picwo": 49,
    "picho": 49,
    "picx": 0,
    "picy": 0,
    "picxo": 0,
    "picyo": 0
  },
  {
    "svg": { "svg_id": "12", "width": 10, "height": 10 },
    "id": 22364094,
    "name": "Yelna military deployment area",
    "lat": "54.60317",
    "lng": "33.15434",
    "strokecolor": "#FF0000",
    "fillcolor": "#FF0000",
    "picw": 39,
    "pich": 39,
    "picwo": 49,
    "picho": 49,
    "picx": 0,
    "picy": 0,
    "picxo": 0,
    "picyo": 0
  },
  {
    "svg": { "svg_id": "12", "width": 10, "height": 10 },
    "id": 22364095,
    "name": "Klintsy military deployment area",
    "lat": "52.71688",
    "lng": "32.27205",
    "strokecolor": "#FF0000",
    "fillcolor": "#FF0000",
    "picw": 39,
    "pich": 39,
    "picwo": 49,
    "picho": 49,
    "picx": 0,
    "picy": 0,
    "picxo": 0,
    "picyo": 0
  },
  {
    "svg": { "svg_id": "12", "width": 10, "height": 10 },
    "id": 22364096,
    "name": "Klintsy military deployment area 2",
    "lat": "52.74545",
    "lng": "32.24995",
    "strokecolor": "#FF0000",
    "fillcolor": "#FF0000",
    "picw": 39,
    "pich": 39,
    "picwo": 49,
    "picho": 49,
    "picx": 0,
    "picy": 0,
    "picxo": 0,
    "picyo": 0
  },
  {
    "svg": { "svg_id": "12", "width": 10, "height": 10 },
    "id": 22364097,
    "name": "Kamensk-Shakhtynsky military deployment area ",
    "lat": "48.27233",
    "lng": "40.26103",
    "strokecolor": "#FF0000",
    "fillcolor": "#FF0000",
    "picw": 39,
    "pich": 39,
    "picwo": 49,
    "picho": 49,
    "picx": 0,
    "picy": 0,
    "picxo": 0,
    "picyo": 0
  },
  {
    "svg": { "svg_id": "12", "width": 10, "height": 10 },
    "id": 22364098,
    "name": "Boguchar military deployment area ",
    "lat": "49.94249",
    "lng": "40.49558",
    "strokecolor": "#FF0000",
    "fillcolor": "#FF0000",
    "picw": 39,
    "pich": 39,
    "picwo": 49,
    "picho": 49,
    "picx": 0,
    "picy": 0,
    "picxo": 0,
    "picyo": 0
  },
  {
    "svg": { "svg_id": "12", "width": 10, "height": 10 },
    "id": 22364099,
    "name": "Kadamovsky military deployment area",
    "lat": "47.5275",
    "lng": "40.1344",
    "strokecolor": "#FF0000",
    "fillcolor": "#FF0000",
    "picw": 39,
    "pich": 39,
    "picwo": 49,
    "picho": 49,
    "picx": 0,
    "picy": 0,
    "picxo": 0,
    "picyo": 0
  },
  {
    "svg": { "svg_id": "12", "width": 10, "height": 10 },
    "id": 22364102,
    "name": "Kuzminsky military deployment area",
    "lat": "47.42093",
    "lng": "39.25006",
    "strokecolor": "#FF0000",
    "fillcolor": "#FF0000",
    "picw": 39,
    "pich": 39,
    "picwo": 49,
    "picho": 49,
    "picx": 0,
    "picy": 0,
    "picxo": 0,
    "picyo": 0
  },
  {
    "svg": { "svg_id": "12", "width": 10, "height": 10 },
    "id": 22364139,
    "name": "Opuk military deployment area",
    "lat": "45.03136",
    "lng": "35.96597",
    "strokecolor": "#FF0000",
    "fillcolor": "#FF0000",
    "picw": 39,
    "pich": 39,
    "picwo": 49,
    "picho": 49,
    "picx": 0,
    "picy": 0,
    "picxo": 0,
    "picyo": 0
  },
  {
    "svg": { "svg_id": "12", "width": 10, "height": 10 },
    "id": 22364437,
    "name": "Postoyalye Dvory military deployment area",
    "lat": "51.76924",
    "lng": "36.4303",
    "strokecolor": "#FF0000",
    "fillcolor": "#FF0000",
    "picw": 39,
    "pich": 39,
    "picwo": 49,
    "picho": 49,
    "picx": 0,
    "picy": 0,
    "picxo": 0,
    "picyo": 0
  },
  {
    "svg": { "svg_id": "12", "width": 10, "height": 10 },
    "id": 22366315,
    "name": "Klintsy military deployment area 3",
    "lat": "52.73832",
    "lng": "32.02583",
    "strokecolor": "#FF0000",
    "fillcolor": "#FF0000",
    "picw": 39,
    "pich": 39,
    "picwo": 49,
    "picho": 49,
    "picx": 0,
    "picy": 0,
    "picxo": 0,
    "picyo": 0
  },
  {
    "svg": { "svg_id": "12", "width": 10, "height": 10 },
    "id": 22372005,
    "name": "Klimovo Air Base military deployment area",
    "lat": "52.34583",
    "lng": "32.17054",
    "strokecolor": "#FF0000",
    "fillcolor": "#FF0000",
    "picw": 39,
    "pich": 39,
    "picwo": 49,
    "picho": 49,
    "picx": 0,
    "picy": 0,
    "picxo": 0,
    "picyo": 0
  },
  {
    "svg": { "svg_id": "12", "width": 10, "height": 10 },
    "id": 22373202,
    "name": "Novoozerne military deployment area",
    "lat": "45.40127",
    "lng": "33.15022",
    "strokecolor": "#FF0000",
    "fillcolor": "#FF0000",
    "picw": 39,
    "pich": 39,
    "picwo": 49,
    "picho": 49,
    "picx": 0,
    "picy": 0,
    "picxo": 0,
    "picyo": 0
  },
  {
    "svg": { "svg_id": "12", "width": 10, "height": 10 },
    "id": 22382435,
    "name": "Rechitsa military deployment area",
    "lat": "52.28846",
    "lng": "30.392",
    "strokecolor": "#FF0000",
    "fillcolor": "#FF0000",
    "picw": 39,
    "pich": 39,
    "picwo": 49,
    "picho": 49,
    "picx": 0,
    "picy": 0,
    "picxo": 0,
    "picyo": 0
  },
  {
    "svg": { "svg_id": "12", "width": 10, "height": 10 },
    "id": 22386366,
    "name": "Bovharka military deployment area",
    "lat": "51.87532",
    "lng": "29.08717",
    "strokecolor": "#FF0000",
    "fillcolor": "#FF0000",
    "picw": 39,
    "pich": 39,
    "picwo": 49,
    "picho": 49,
    "picx": 0,
    "picy": 0,
    "picxo": 0,
    "picyo": 0
  },
  {
    "svg": { "svg_id": "12", "width": 10, "height": 10 },
    "id": 22386481,
    "name": "Zyabrovka military deployment area",
    "lat": "52.30777",
    "lng": "31.15156",
    "strokecolor": "#FF0000",
    "fillcolor": "#FF0000",
    "picw": 39,
    "pich": 39,
    "picwo": 49,
    "picho": 49,
    "picx": 0,
    "picy": 0,
    "picxo": 0,
    "picyo": 0
  },
  {
    "svg": { "svg_id": "12", "width": 10, "height": 10 },
    "id": 22390019,
    "name": "Military camp near Novoozerne",
    "lat": "45.36462",
    "lng": "33.09494",
    "strokecolor": "#FF0000",
    "fillcolor": "#FF0000",
    "picw": 39,
    "pich": 39,
    "picwo": 49,
    "picho": 49,
    "picx": 0,
    "picy": 0,
    "picxo": 0,
    "picyo": 0
  }
]
